Я работаю с проектом, в котором мы отслеживаем передвижение бпла с помощью gps и vio.
Мне нужно исправить и модифицировать код. Вот 1 файл calibrate_origin.ipynb
{
 "cells": [
  {
   "cell_type": "code",
   "execution_count": 1,
   "metadata": {},
   "outputs": [],
   "source": [
    "import vio_ort\n",
    "import json\n",
    "import matplotlib.pyplot as plt\n",
    "import os\n",
    "import cv2"
   ]
  },
  {
   "cell_type": "code",
   "execution_count": 2,
   "metadata": {},
   "outputs": [],
   "source": [
    "lat_VIO = []\n",
    "lon_VIO = []\n",
    "\n",
    "odometry = vio_ort.VIO(lat0=54.889668, lon0=83.1258973333, alt0=0)\n",
    "\n",
    "# Путь к папке\n",
    "set_dir = '2025_1_16_15_43_35'\n",
    "set_dir = '2024_12_15_15_18_8_num_24'\n",
    "\n",
    "# Получение всех файлов с расширением .json\n",
    "json_files = [f for f in os.listdir(set_dir) if f.endswith('.json')]\n",
    "\n",
    "# Сортировка файлов по имени\n",
    "json_files.sort()\n",
    "\n",
    "# start_json = \"1730798575417.json\"\n",
    "start = 30\n",
    "count_json = 600\n",
    "\n",
    "lat_VIO = []\n",
    "lon_VIO = []\n",
    "\n",
    "lat_GPS = []\n",
    "lon_GPS = []"
   ]
  },
  {
   "cell_type": "code",
   "execution_count": 3,
   "metadata": {},
   "outputs": [
    {
     "name": "stderr",
     "output_type": "stream",
     "text": [
      "/home/razvald/.local/lib/python3.12/site-packages/numpy/_core/fromnumeric.py:3904: RuntimeWarning: Mean of empty slice.\n",
      "  return _methods._mean(a, axis=axis, dtype=dtype,\n",
      "/home/razvald/.local/lib/python3.12/site-packages/numpy/_core/_methods.py:147: RuntimeWarning: invalid value encountered in scalar divide\n",
      "  ret = ret.dtype.type(ret / rcount)\n"
     ]
    },
    {
     "name": "stdout",
     "output_type": "stream",
     "text": [
      "Error processing 1734247156011.json: setting an array element with a sequence. The requested array has an inhomogeneous shape after 1 dimensions. The detected shape was (4,) + inhomogeneous part.\n",
      "Error processing 1734247156335.json: setting an array element with a sequence. The requested array has an inhomogeneous shape after 1 dimensions. The detected shape was (4,) + inhomogeneous part.\n",
      "Error processing 1734247156957.json: setting an array element with a sequence. The requested array has an inhomogeneous shape after 1 dimensions. The detected shape was (4,) + inhomogeneous part.\n",
      "Error processing 1734247157223.json: setting an array element with a sequence. The requested array has an inhomogeneous shape after 1 dimensions. The detected shape was (4,) + inhomogeneous part.\n"
     ]
    }
   ],
   "source": [
    "# Iterate over files in the dataset directory\n",
    "for filename in json_files[start:start + count_json]:\n",
    "    # Read the JSON file\n",
    "    with open(f'{set_dir}/{filename}', 'r') as file:\n",
    "        data = json.load(file)\n",
    "        try:\n",
    "            if 'GNRMC' in data:\n",
    "                if data['GNRMC']['status'] == 'A':\n",
    "                    img_path = set_dir + '/' + os.path.splitext(filename)[0] + '.jpg'\n",
    "                    image = cv2.imread(img_path)\n",
    "                \n",
    "                    result_vio = odometry.add_trace_pt(image, data)\n",
    "                    \n",
    "                    lat_VIO.append(result_vio['lat'])\n",
    "                    lon_VIO.append(result_vio['lon'])\n",
    "                    \n",
    "                    \n",
    "                    lat_GPS.append(data['GNRMC']['lat'])\n",
    "                    lon_GPS.append(data['GNRMC']['lon'])\n",
    "        except Exception as e:\n",
    "            print(f\"Error processing {filename}: {e}\")"
   ]
  },
...

А вот файл исправный обработан 1734247336667.json
{"HEARTBEAT": {"mavpackettype": "HEARTBEAT", "type": 2, "autopilot": 3, "base_mode": 89, "custom_mode": 6, "system_status": 3, "mavlink_version": 3}, "STATUSTEXT": {"mavpackettype": "STATUSTEXT", "severity": 6, "text": "Field Elevation Set: 0m", "id": 0, "chunk_seq": 0}, "ATTITUDE": {"mavpackettype": "ATTITUDE", "time_boot_ms": 256461, "roll": 2.329766273498535, "pitch": -0.3365299701690674, "yaw": 1.025748372077942, "rollspeed": 0.2690817713737488, "pitchspeed": -0.14320339262485504, "yawspeed": 0.013559903018176556}, "GLOBAL_POSITION_INT": {"mavpackettype": "GLOBAL_POSITION_INT", "time_boot_ms": 256461, "lat": 548471848, "lon": 831275441, "alt": 530, "relative_alt": 421, "vx": 57, "vy": 1, "vz": -41, "hdg": 30123}, "SYS_STATUS": {"mavpackettype": "SYS_STATUS", "onboard_control_sensors_present": 1399979055, "onboard_control_sensors_enabled": 1398930479, "onboard_control_sensors_health": 1198652431, "load": 395, "voltage_battery": 15118, "current_battery": 19, "battery_remaining": 92, "drop_rate_comm": 0, "errors_comm": 0, "errors_count1": 0, "errors_count2": 0, "errors_count3": 0, "errors_count4": 0}, "POWER_STATUS": {"mavpackettype": "POWER_STATUS", "Vcc": 4864, "Vservo": 4912, "flags": 0}, "MEMINFO": {"mavpackettype": "MEMINFO", "brkval": 0, "freemem": 50288, "freemem32": 50288}, "NAV_CONTROLLER_OUTPUT": {"mavpackettype": "NAV_CONTROLLER_OUTPUT", "nav_roll": 0.014301476068794727, "nav_pitch": 0.048535775393247604, "nav_bearing": -130, "target_bearing": 253, "wp_dist": 0, "alt_error": 0.9390482902526855, "aspd_error": 0.0, "xtrack_error": 0.34481844305992126}, "MISSION_CURRENT": {"mavpackettype": "MISSION_CURRENT", "seq": 0, "total": 6, "mission_state": 2, "mission_mode": 0}, "VFR_HUD": {"mavpackettype": "VFR_HUD", "airspeed": 0.7132735848426819, "groundspeed": 0.5795619487762451, "heading": 301, "throttle": 0, "alt": 0.5299999713897705, "climb": 0.41577276587486267}, "SERVO_OUTPUT_RAW": {"mavpackettype": "SERVO_OUTPUT_RAW", "time_usec": 256463635, "port": 0, "servo1_raw": 1000, "servo2_raw": 1000, "servo3_raw": 1000, "servo4_raw": 1000, "servo5_raw": 0, "servo6_raw": 0, "servo7_raw": 0, "servo8_raw": 0, "servo9_raw": 0, "servo10_raw": 0, "servo11_raw": 0, "servo12_raw": 0, "servo13_raw": 0, "servo14_raw": 0, "servo15_raw": 0, "servo16_raw": 0}, "RC_CHANNELS": {"mavpackettype": "RC_CHANNELS", "time_boot_ms": 256463, "chancount": 16, "chan1_raw": 1497, "chan2_raw": 1497, "chan3_raw": 1571, "chan4_raw": 1493, "chan5_raw": 2006, "chan6_raw": 982, "chan7_raw": 1321, "chan8_raw": 1318, "chan9_raw": 2006, "chan10_raw": 982, "chan11_raw": 1495, "chan12_raw": 1495, "chan13_raw": 1495, "chan14_raw": 1495, "chan15_raw": 1495, "chan16_raw": 2006, "chan17_raw": 0, "chan18_raw": 0, "rssi": 255}, "RAW_IMU": {"mavpackettype": "RAW_IMU", "time_usec": 256463739, "xacc": -250, "yacc": -627, "zacc": 581, "xgyro": 284, "ygyro": -139, "zgyro": 17, "xmag": 1105, "ymag": 133, "zmag": -244, "id": 0, "temperature": 343}, "SCALED_IMU2": {"mavpackettype": "SCALED_IMU2", "time_boot_ms": 256336, "xacc": 0, "yacc": 0, "zacc": 0, "xgyro": 0, "ygyro": 0, "zgyro": 0, "xmag": 251, "ymag": 237, "zmag": -506, "temperature": 0}, "SCALED_IMU3": {"mavpackettype": "SCALED_IMU3", "time_boot_ms": 256340, "xacc": 0, "yacc": 0, "zacc": 0, "xgyro": 0, "ygyro": 0, "zgyro": 0, "xmag": 0, "ymag": 0, "zmag": 0, "temperature": 0}, "SCALED_PRESSURE": {"mavpackettype": "SCALED_PRESSURE", "time_boot_ms": 256343, "press_abs": 1015.1138916015625, "press_diff": 0.0, "temperature": -244, "temperature_press_diff": 0}, "GPS_RAW_INT": {"mavpackettype": "GPS_RAW_INT", "time_usec": 256307000, "fix_type": 3, "lat": 548471814, "lon": 831275443, "alt": 220, "eph": 100, "epv": 100, "vel": 5, "cog": 4181, "satellites_visible": 10, "alt_ellipsoid": 0, "h_acc": 0, "v_acc": 0, "vel_acc": 600, "hdg_acc": 0, "yaw": 0}, "SYSTEM_TIME": {"mavpackettype": "SYSTEM_TIME", "time_unix_usec": 1734794518424499, "time_boot_ms": 256363}, "AHRS": {"mavpackettype": "AHRS", "omegaIx": -0.001167656620964408, "omegaIy": -0.0007672394858673215, "omegaIz": -0.0007676196983084083, "accel_weight": 0.0, "renorm_val": 0.0, "error_rp": 0.05570137873291969, "error_yaw": 0.08263391256332397}, "TERRAIN_REPORT": {"mavpackettype": "TERRAIN_REPORT", "lat": 548471846, "lon": 831275440, "spacing": 100, "terrain_height": 166.1852569580078, "current_height": -165.6852569580078, "pending": 0, "loaded": 448}, "VIBRATION": {"mavpackettype": "VIBRATION", "time_usec": 256399402, "vibration_x": 0.4749787449836731, "vibration_y": 0.3680604100227356, "vibration_z": 0.2682059705257416, "clipping_0": 0, "clipping_1": 0, "clipping_2": 0}, "BATTERY_STATUS": {"mavpackettype": "BATTERY_STATUS", "id": 0, "battery_function": 0, "type": 0, "temperature": 32767, "voltages": [15119, 65535, 65535, 65535, 65535, 65535, 65535, 65535, 65535, 65535], "current_battery": 18, "current_consumed": 578, "energy_consumed": 298, "battery_remaining": 92, "time_remaining": 0, "charge_state": 1, "voltages_ext": [0, 0, 0, 0], "mode": 0, "fault_bitmask": 0}, "PARAM_VALUE": {"mavpackettype": "PARAM_VALUE", "param_id": "STAT_RUNTIME", "param_value": 134451.0, "param_type": 6, "param_count": 1017, "param_index": 65535}, "COMMAND_ACK": {"mavpackettype": "COMMAND_ACK", "command": 410, "result": 4, "progress": 0, "result_param2": 0, "target_system": 255, "target_component": 230}, "EKF_STATUS_REPORT": {"mavpackettype": "EKF_STATUS_REPORT", "flags": 831, "velocity_variance": 0.04876938462257385, "pos_horiz_variance": 0.06347788125276566, "pos_vert_variance": 0.01085621677339077, "compass_variance": 0.00921688787639141, "terrain_alt_variance": 0.0, "airspeed_variance": 0.0}, "AHRS2": {"mavpackettype": "AHRS2", "roll": 2.3133726119995117, "pitch": -0.30918338894844055, "yaw": -1.0440491437911987, "altitude": 0.35999998450279236, "lat": 548471814, "lng": 831275444}, "TIMESYNC": {"mavpackettype": "TIMESYNC", "tc1": 0, "ts1": 250058451001}, "GPS_GLOBAL_ORIGIN": {"mavpackettype": "GPS_GLOBAL_ORIGIN", "latitude": 548471833, "longitude": 831275374, "altitude": 0, "time_usec": 64798104}, "HOME_POSITION": {"mavpackettype": "HOME_POSITION", "latitude": 548471836, "longitude": 831275370, "altitude": 110, "x": 0.03339565545320511, "y": -0.02563714236021042, "z": -0.10999999940395355, "q": [NaN, NaN, NaN, NaN], "approach_x": 0.0, "approach_y": 0.0, "approach_z": 0.0, "time_usec": 64810547}, "WIND": {"mavpackettype": "WIND", "direction": -180.0, "speed": 0.0, "speed_z": 0.0}, "LOCAL_POSITION_NED": {"mavpackettype": "LOCAL_POSITION_NED", "time_boot_ms": 256390, "x": 0.15133443474769592, "y": 0.4293738305568695, "z": -0.5114741325378418, "vx": 0.5519789457321167, "vy": 0.06098395958542824, "vz": -0.43587079644203186}, "POSITION_TARGET_GLOBAL_INT": {"mavpackettype": "POSITION_TARGET_GLOBAL_INT", "time_boot_ms": 231916, "coordinate_frame": 0, "type_mask": 65016, "lat_int": 548471836, "lon_int": 831275370, "alt": 12.449999809265137, "vx": 0.0, "vy": 0.0, "vz": 0.0, "afx": 0.0, "afy": 0.0, "afz": 0.0, "yaw": 0.0, "yaw_rate": 0.0}, "VIO": {"timestamp": 1734247336.6701338, "to_north": -0.16598146940380276, "to_east": 0.4473689159347811, "lat": 54.84718184226991, "lon": 83.12754447994054, "alt": 0.35999998450279236, "veln": 0.03924486068876632, "vele": 0.05112825389496214, "veld": 0.0, "GPS_week": 2345, "GPS_ms": 573736934}}

Неисправный 1734247156011
{"HEARTBEAT": {"mavpackettype": "HEARTBEAT", "type": 2, "autopilot": 3, "base_mode": 217, "custom_mode": 5, "system_status": 4, "mavlink_version": 3}, "STATUSTEXT": {"mavpackettype": "STATUSTEXT", "severity": 4, "text": "Terrain: clamping offset -196 to -30", "id": 0, "chunk_seq": 0}, "ATTITUDE": {"mavpackettype": "ATTITUDE", "time_boot_ms": 75775, "roll": -0.021047644317150116, "pitch": 0.04078953340649605, "yaw": 2.486942768096924, "rollspeed": -0.03990858048200607, "pitchspeed": -0.054222747683525085, "yawspeed": 0.014286646619439125}, "GLOBAL_POSITION_INT": {"mavpackettype": "GLOBAL_POSITION_INT", "time_boot_ms": 75775, "lat": 548471835, "lon": 831275359, "alt": 100, "relative_alt": -9, "vx": 10, "vy": -17, "vz": -70, "hdg": 21751}, "SYS_STATUS": {"mavpackettype": "SYS_STATUS", "onboard_control_sensors_present": 1399979055, "onboard_control_sensors_enabled": 1398930479, "onboard_control_sensors_health": 1467087919, "load": 505, "voltage_battery": 14714, "current_battery": 1224, "battery_remaining": 99, "drop_rate_comm": 0, "errors_comm": 0, "errors_count1": 0, "errors_count2": 0, "errors_count3": 0, "errors_count4": 0}, "POWER_STATUS": {"mavpackettype": "POWER_STATUS", "Vcc": 4856, "Vservo": 4905, "flags": 0}, "MEMINFO": {"mavpackettype": "MEMINFO", "brkval": 0, "freemem": 50288, "freemem32": 50288}, "NAV_CONTROLLER_OUTPUT": {"mavpackettype": "NAV_CONTROLLER_OUTPUT", "nav_roll": -3.290487289428711, "nav_pitch": 1.1722570657730103, "nav_bearing": -139, "target_bearing": 85, "wp_dist": 0, "alt_error": -0.0411640889942646, "aspd_error": 0.0, "xtrack_error": 0.052783310413360596}, "MISSION_CURRENT": {"mavpackettype": "MISSION_CURRENT", "seq": 0, "total": 6, "mission_state": 2, "mission_mode": 0}, "VFR_HUD": {"mavpackettype": "VFR_HUD", "airspeed": 0.740882396697998, "groundspeed": 0.20491516590118408, "heading": 217, "throttle": 25, "alt": 0.09999999403953552, "climb": 0.7119807004928589}, "SERVO_OUTPUT_RAW": {"mavpackettype": "SERVO_OUTPUT_RAW", "time_usec": 75778244, "port": 0, "servo1_raw": 1540, "servo2_raw": 1487, "servo3_raw": 1430, "servo4_raw": 1496, "servo5_raw": 0, "servo6_raw": 0, "servo7_raw": 0, "servo8_raw": 0, "servo9_raw": 0, "servo10_raw": 0, "servo11_raw": 0, "servo12_raw": 0, "servo13_raw": 0, "servo14_raw": 0, "servo15_raw": 0, "servo16_raw": 0}, "RC_CHANNELS": {"mavpackettype": "RC_CHANNELS", "time_boot_ms": 75778, "chancount": 16, "chan1_raw": 1497, "chan2_raw": 1496, "chan3_raw": 1725, "chan4_raw": 1486, "chan5_raw": 1495, "chan6_raw": 982, "chan7_raw": 1321, "chan8_raw": 1318, "chan9_raw": 982, "chan10_raw": 982, "chan11_raw": 1495, "chan12_raw": 1495, "chan13_raw": 1495, "chan14_raw": 1495, "chan15_raw": 1495, "chan16_raw": 1998, "chan17_raw": 0, "chan18_raw": 0, "rssi": 255}, "RAW_IMU": {"mavpackettype": "RAW_IMU", "time_usec": 75780621, "xacc": 29, "yacc": 46, "zacc": -1067, "xgyro": 64, "ygyro": -95, "zgyro": -17, "xmag": 603, "ymag": 29, "zmag": 952, "id": 0, "temperature": 398}, "SCALED_IMU2": {"mavpackettype": "SCALED_IMU2", "time_boot_ms": 75780, "xacc": 0, "yacc": 0, "zacc": 0, "xgyro": 0, "ygyro": 0, "zgyro": 0, "xmag": -146, "ymag": 57, "zmag": 614, "temperature": 0}, "SCALED_IMU3": {"mavpackettype": "SCALED_IMU3", "time_boot_ms": 75785, "xacc": 0, "yacc": 0, "zacc": 0, "xgyro": 0, "ygyro": 0, "zgyro": 0, "xmag": 0, "ymag": 0, "zmag": 0, "temperature": 0}, "SCALED_PRESSURE": {"mavpackettype": "SCALED_PRESSURE", "time_boot_ms": 75786, "press_abs": 1015.3424682617188, "press_diff": 0.0, "temperature": -197, "temperature_press_diff": 0}, "GPS_RAW_INT": {"mavpackettype": "GPS_RAW_INT", "time_usec": 75581000, "fix_type": 3, "lat": 548471833, "lon": 831275374, "alt": 0, "eph": 100, "epv": 100, "vel": 0, "cog": 23512, "satellites_visible": 10, "alt_ellipsoid": 0, "h_acc": 0, "v_acc": 0, "vel_acc": 600, "hdg_acc": 0, "yaw": 0}, "SYSTEM_TIME": {"mavpackettype": "SYSTEM_TIME", "time_unix_usec": 1734794337729187, "time_boot_ms": 75668}, "AHRS": {"mavpackettype": "AHRS", "omegaIx": -0.001606227015145123, "omegaIy": -0.0009429028141312301, "omegaIz": -0.0004281211004126817, "accel_weight": 0.0, "renorm_val": 0.0, "error_rp": 0.013384461402893066, "error_yaw": 0.05216606333851814}, "TERRAIN_REPORT": {"mavpackettype": "TERRAIN_REPORT", "lat": 548471835, "lon": 831275361, "spacing": 100, "terrain_height": 166.1698455810547, "current_height": -166.12985229492188, "pending": 0, "loaded": 448}, "VIBRATION": {"mavpackettype": "VIBRATION", "time_usec": 75703122, "vibration_x": 2.867511510848999, "vibration_y": 5.734550952911377, "vibration_z": 1.9249399900436401, "clipping_0": 0, "clipping_1": 0, "clipping_2": 0}, "BATTERY_STATUS": {"mavpackettype": "BATTERY_STATUS", "id": 0, "battery_function": 0, "type": 0, "temperature": 32767, "voltages": [14714, 65535, 65535, 65535, 65535, 65535, 65535, 65535, 65535, 65535], "current_battery": 1224, "current_consumed": 8, "energy_consumed": 4, "battery_remaining": 99, "time_remaining": 0, "charge_state": 1, "voltages_ext": [0, 0, 0, 0], "mode": 0, "fault_bitmask": 0}, "PARAM_VALUE": {"mavpackettype": "PARAM_VALUE", "param_id": "BARO1_GND_PRESS", "param_value": 101533.6171875, "param_type": 9, "param_count": 1017, "param_index": 65535}, "COMMAND_ACK": {"mavpackettype": "COMMAND_ACK", "command": 410, "result": 4, "progress": 0, "result_param2": 0, "target_system": 255, "target_component": 230}, "EKF_STATUS_REPORT": {"mavpackettype": "EKF_STATUS_REPORT", "flags": 831, "velocity_variance": 0.01758691668510437, "pos_horiz_variance": 0.012352761812508106, "pos_vert_variance": 0.010785686783492565, "compass_variance": 0.04107171669602394, "terrain_alt_variance": 0.0, "airspeed_variance": 0.0}, "AHRS2": {"mavpackettype": "AHRS2", "roll": -0.013388396240770817, "pitch": 0.038270436227321625, "yaw": -2.4803476333618164, "altitude": 0.009999999776482582, "lat": 548471833, "lng": 831275374}, "TIMESYNC": {"mavpackettype": "TIMESYNC", "tc1": 0, "ts1": 70015777001}, "GPS_GLOBAL_ORIGIN": {"mavpackettype": "GPS_GLOBAL_ORIGIN", "latitude": 548471833, "longitude": 831275374, "altitude": 0, "time_usec": 64798104}, "HOME_POSITION": {"mavpackettype": "HOME_POSITION", "latitude": 548471836, "longitude": 831275370, "altitude": 110, "x": 0.03339565545320511, "y": -0.02563714236021042, "z": -0.10999999940395355, "q": [NaN, NaN, NaN, NaN], "approach_x": 0.0, "approach_y": 0.0, "approach_z": 0.0, "time_usec": 64810547}, "WIND": {"mavpackettype": "WIND", "direction": -180.0, "speed": 0.0, "speed_z": 0.0}, "LOCAL_POSITION_NED": {"mavpackettype": "LOCAL_POSITION_NED", "time_boot_ms": 75695, "x": 0.026093415915966034, "y": -0.08688311278820038, "z": -0.05185284838080406, "vx": 0.0796518623828888, "vy": -0.17817148566246033, "vz": -0.6725783944129944}, "GNRMC": {"_immutable": true, "_logger": "", "_validate": 1, "_userdefined": {}, "_defsource": 0, "_mode": 0, "_hpnmeamode": false, "_talker": "GN", "_msgID": "RMC", "_payload": ["091547.50", "A", "5450.83031", "N", "08307.64946", "E", "1.265", "148.57", "171224", "", "", "A"], "_checksum": "7F", "time": "09:15:47.500000", "status": "A", "lat": 54.8471718333, "NS": "N", "lon": 83.127491, "EW": "E", "spd": 1.265, "cog": 148.57, "date": "17/12/2024", "mv": "", "mvEW": "", "posMode": "A"}, "GNVTG": {"_immutable": true, "_logger": "", "_validate": 1, "_userdefined": {}, "_defsource": 0, "_mode": 0, "_hpnmeamode": false, "_talker": "GN", "_msgID": "VTG", "_payload": ["148.57", "T", "", "M", "1.265", "N", "2.343", "K", "A"], "_checksum": "2A", "cogt": 148.57, "cogtUnit": "T", "cogm": "", "cogmUnit": "M", "sogn": 1.265, "sognUnit": "N", "sogk": 2.343, "sogkUnit": "K", "posMode": "A"}, "GNGGA": {"_immutable": true, "_logger": "", "_validate": 1, "_userdefined": {}, "_defsource": 0, "_mode": 0, "_hpnmeamode": false, "_talker": "GN", "_msgID": "GGA", "_payload": ["091547.50", "5450.83031", "N", "08307.64946", "E", "1", "12", "0.71", "192.2", "M", "-38.2", "M", "", ""], "_checksum": "68", "time": "09:15:47.500000", "lat": 54.8471718333, "NS": "N", "lon": 83.127491, "EW": "E", "quality": 1, "numSV": 12, "HDOP": 0.71, "alt": 192.2, "altUnit": "M", "sep": -38.2, "sepUnit": "M", "diffAge": "", "diffStation": ""}, "GNGSA": {"_immutable": true, "_logger": "", "_validate": 1, "_userdefined": {}, "_defsource": 0, "_mode": 0, "_hpnmeamode": false, "_talker": "GN", "_msgID": "GSA", "_payload": ["A", "3", "75", "66", "85", "67", "76", "65", "", "", "", "", "", "", "1.32", "0.71", "1.12"], "_checksum": "14", "opMode": "A", "navMode": 3, "svid_01": 75, "svid_02": 66, "svid_03": 85, "svid_04": 67, "svid_05": 76, "svid_06": 65, "svid_07": "", "svid_08": "", "svid_09": "", "svid_10": "", "svid_11": "", "svid_12": "", "PDOP": 1.32, "HDOP": 0.71, "VDOP": 1.12}, "GPGSV": {"_immutable": true, "_logger": "", "_validate": 1, "_userdefined": {}, "_defsource": 0, "_mode": 0, "_hpnmeamode": false, "_talker": "GP", "_msgID": "GSV", "_payload": ["3", "3", "12", "21", "23", "116", "29", "22", "19", "254", "31", "27", "23", "049", "33", "30", "71", "264", "33"], "_checksum": "70", "numMsg": 3, "msgNum": 3, "numSV": 12, "svid_01": 21, "elv_01": 23.0, "az_01": 116, "cno_01": 29, "svid_02": 22, "elv_02": 19.0, "az_02": 254, "cno_02": 31, "svid_03": 27, "elv_03": 23.0, "az_03": 49, "cno_03": 33, "svid_04": 30, "elv_04": 71.0, "az_04": 264, "cno_04": 33}, "GLGSV": {"_immutable": true, "_logger": "", "_validate": 1, "_userdefined": {}, "_defsource": 0, "_mode": 0, "_hpnmeamode": false, "_talker": "GL", "_msgID": "GSV", "_payload": ["3", "3", "09", "85", "35", "132", "28"], "_checksum": "5D", "numMsg": 3, "msgNum": 3, "numSV": 9, "svid_01": 85, "elv_01": 35.0, "az_01": 132, "cno_01": 28}, "GNGLL": {"_immutable": true, "_logger": "", "_validate": 1, "_userdefined": {}, "_defsource": 0, "_mode": 0, "_hpnmeamode": false, "_talker": "GN", "_msgID": "GLL", "_payload": ["5450.83046", "N", "08307.64953", "E", "091547.00", "A", "A"], "_checksum": "75", "lat": 54.8471743333, "NS": "N", "lon": 83.1274921667, "EW": "E", "time": "09:15:47.000000", "status": "A", "posMode": "A"}, "GNTXT": {"_immutable": true, "_logger": "", "_validate": 1, "_userdefined": {}, "_defsource": 0, "_mode": 0, "_hpnmeamode": false, "_talker": "GN", "_msgID": "TXT", "_payload": ["01", "01", "01", "More than 100 frame errors", " UART RX was disabled"], "_checksum": "70", "numMsg": 1, "msgNum": 1, "msgType": 1, "text": "More than 100 frame errors"}, "VIO": {"timestamp": 1734247156.013434, "to_north": 0.0046542521164789265, "to_east": -0.0004498061419066193, "lat": 54.84718337510967, "lon": 83.12753749298204, "alt": 0.009999999776482582, "veln": 0.0003995335578146446, "vele": -0.00011725117519236908, "veld": 0.0, "GPS_week": 2345, "GPS_ms": 573556330}}